[{"id":"09-046-5775","name":"Ives Sivyer","street":"9355 Mccormick Drive","location":"Tennessee","status":"No Issues","entries_stat":"23 Unique Entries","entries_group":"Heterogenous","risk_profile":"Low Risk"},
{"id":"84-847-8385","name":"Joaquin Oliveras","street":"9 Grover Road","location":"Mississippi","status":"3 issue found","entries_stat":"12 Unique Entries","entries_group":"Heterogenous","risk_profile":"Low Risk"},
{"id":"59-202-8649","name":"Kahaleel Thresh","street":"79750 Grayhawk Way","location":"District of Columbia","status":"3 issue found","entries_stat":"20 Unique Entries","entries_group":"Homogeneous","risk_profile":"Mid Risk"},
{"id":"79-425-2308","name":"Hakeem Etchells","street":"09429 Crowley Crossing","location":"Texas","status":"3 issue found","entries_stat":"13 Unique Entries","entries_group":"Homogeneous","risk_profile":"Low Risk"},
{"id":"22-964-7936","name":"Nissa Rosenbloom","street":"24361 Upham Court","location":"South Dakota","status":"4 issue found","entries_stat":"8 Unique Entries","entries_group":"Homogeneous","risk_profile":"High Risk"},
{"id":"27-572-6434","name":"Gladys Tire","street":"4244 Veith Alley","location":"Nevada","status":"No Issues","entries_stat":"7 Unique Entries","entries_group":"Homogeneous","risk_profile":"High Risk"},
{"id":"17-090-3757","name":"Flinn Perrat","street":"94 Kropf Center","location":"California","status":"No Issues","entries_stat":"9 Unique Entries","entries_group":"Homogeneous","risk_profile":"Low Risk"},
{"id":"87-745-7790","name":"Gayle Lorne","street":"019 3rd Trail","location":"California","status":"No Issues","entries_stat":"15 Unique Entries","entries_group":"Heterogenous","risk_profile":"Low Risk"},
{"id":"06-546-8275","name":"Somerset Aslott","street":"49594 Fieldstone Way","location":"Minnesota","status":"5 issue found","entries_stat":"15 Unique Entries","entries_group":"Homogeneous","risk_profile":"High Risk"},
{"id":"26-800-0735","name":"Vasilis Theodore","street":"9408 Doe Crossing Hill","location":"California","status":"5 issue found","entries_stat":"6 Unique Entries","entries_group":"Heterogenous","risk_profile":"Mid Risk"},
{"id":"77-676-6010","name":"Rodrigo Tunmore","street":"88 Troy Point","location":"Wisconsin","status":"3 issue found","entries_stat":"19 Unique Entries","entries_group":"Heterogenous","risk_profile":"Mid Risk"},
{"id":"36-279-0215","name":"Chanda Costi","street":"2 Summer Ridge Plaza","location":"North Carolina","status":"No Issues","entries_stat":"28 Unique Entries","entries_group":"Homogeneous","risk_profile":"Mid Risk"},
{"id":"19-413-4350","name":"Franz Deane","street":"95541 Sloan Parkway","location":"Alaska","status":"3 issue found","entries_stat":"25 Unique Entries","entries_group":"Heterogenous","risk_profile":"High Risk"},
{"id":"84-162-1791","name":"Ansell Scaddon","street":"4 Grasskamp Park","location":"Florida","status":"No Issues","entries_stat":"16 Unique Entries","entries_group":"Homogeneous","risk_profile":"Mid Risk"},
{"id":"92-743-1766","name":"Chaunce Abatelli","street":"52 Quincy Crossing","location":"Colorado","status":"4 issue found","entries_stat":"1 Unique Entries","entries_group":"Homogeneous","risk_profile":"Mid Risk"},
{"id":"90-935-9069","name":"Rickie Malcolm","street":"25619 Atwood Way","location":"Florida","status":"3 issue found","entries_stat":"10 Unique Entries","entries_group":"Heterogenous","risk_profile":"Mid Risk"},
{"id":"69-879-7487","name":"Jaimie Corryer","street":"6 Sherman Terrace","location":"District of Columbia","status":"No Issues","entries_stat":"27 Unique Entries","entries_group":"Homogeneous","risk_profile":"Mid Risk"},
{"id":"83-540-3397","name":"Melisse Jodkowski","street":"9 Debs Plaza","location":"California","status":"5 issue found","entries_stat":"19 Unique Entries","entries_group":"Homogeneous","risk_profile":"Low Risk"},
{"id":"91-475-2830","name":"Lissi Amoore","street":"2285 Mockingbird Crossing","location":"California","status":"3 issue found","entries_stat":"13 Unique Entries","entries_group":"Homogeneous","risk_profile":"Mid Risk"},
{"id":"62-855-2106","name":"Cookie Albrecht","street":"024 Sunfield Street","location":"California","status":"4 issue found","entries_stat":"20 Unique Entries","entries_group":"Homogeneous","risk_profile":"Mid Risk"},
{"id":"14-041-0944","name":"Hastie Timmis","street":"02 Golf View Hill","location":"California","status":"4 issue found","entries_stat":"8 Unique Entries","entries_group":"Heterogenous","risk_profile":"High Risk"},
{"id":"57-880-6068","name":"Sharline Perrot","street":"146 Roxbury Circle","location":"New York","status":"5 issue found","entries_stat":"18 Unique Entries","entries_group":"Homogeneous","risk_profile":"Mid Risk"},
{"id":"85-672-4277","name":"Charmian Rathborne","street":"36 Melrose Drive","location":"California","status":"3 issue found","entries_stat":"20 Unique Entries","entries_group":"Homogeneous","risk_profile":"High Risk"},
{"id":"21-240-8280","name":"Nolan Widdowson","street":"35465 Fallview Avenue","location":"Idaho","status":"No Issues","entries_stat":"26 Unique Entries","entries_group":"Homogeneous","risk_profile":"High Risk"},
{"id":"30-009-0441","name":"Darcie Cuniffe","street":"85 Lakewood Avenue","location":"West Virginia","status":"5 issue found","entries_stat":"23 Unique Entries","entries_group":"Heterogenous","risk_profile":"Low Risk"},
{"id":"01-538-5016","name":"Fayth MacPeice","street":"13 Del Sol Crossing","location":"New York","status":"4 issue found","entries_stat":"11 Unique Entries","entries_group":"Heterogenous","risk_profile":"Mid Risk"},
{"id":"90-008-2642","name":"Cherilyn Haruard","street":"12219 Oxford Circle","location":"Texas","status":"No Issues","entries_stat":"18 Unique Entries","entries_group":"Heterogenous","risk_profile":"Mid Risk"},
{"id":"48-577-2738","name":"Molly Champe","street":"759 3rd Pass","location":"Illinois","status":"No Issues","entries_stat":"26 Unique Entries","entries_group":"Heterogenous","risk_profile":"High Risk"},
{"id":"46-525-5744","name":"Holly Giacobelli","street":"44544 Homewood Point","location":"Ohio","status":"3 issue found","entries_stat":"19 Unique Entries","entries_group":"Heterogenous","risk_profile":"High Risk"},
{"id":"71-572-0546","name":"Adah Beere","street":"1 Northport Way","location":"New Hampshire","status":"5 issue found","entries_stat":"2 Unique Entries","entries_group":"Homogeneous","risk_profile":"Mid Risk"}]